[
	{
		"lat":-36.8484142,
		"lng":174.7619876,
		"title": "Auckland",
		"description": "Sky Tower"
	},
	{
		"lat":-37.7742897,
		"lng":175.2147899,
		"title": "Hamilton",
		"description": "Hamilton Zoo"
	},
	{
		"lat":-37.5258751,
		"lng":177.1778452,
		"title": "Tauranga",
		"description": "White Island Volcano"
	},
	{
		"lat":-38.1367737,
		"lng":176.2499853,
		"title": "Rotorua",
		"description": "Manupira Hot Pools"
	},
	{
		"lat":-40.3579837,
		"lng":175.6076745,
		"title": "Palmerston North",
		"description": "New Zealand Rugby Museum"
	},
	{
		"lat":-41.2904189,
		"lng":174.7820227,
		"title": "Wellington",
		"description": "Te Papa Tongarewa Museum"
	},
	{
		"lat":-40.9338908,
		"lng":172.8791162,
		"title": "Nelson",
		"description": "Abel Tasman National Park"
	},
	{
		"lat":-43.5298235,
		"lng":172.6228999,
		"title": "Christchurch",
		"description": "Botanic Gardens"
	},
	{
		"lat":-45.007538,
		"lng":168.6156522,
		"title": "Queenstown",
		"description": "Ben Lomond"
	},
	{
		"lat":-45.8769422,
		"lng":170.5056671,
		"title": "Dunedin",
		"description": "Toitu Otago Settlers Museum"
	},
	{
		"lat":-46.4081018,
		"lng":168.3465996,
		"title": "Invercargill",
		"description": "E Hayes and Sons - The World's Fastest Indian"
	}
]